City_ID,City,Country,Date,Lat,Lng,Max Temp,Humidity,Cloudiness,Wind Speed
0,Peace River,CA,2022-05-05 18:43:39,56.2501,-117.286,59.31,47,75,6.91
1,Liberal,US,2022-05-05 18:43:07,37.0431,-100.921,60.04,55,100,21.85
2,Mildura,AU,2022-05-05 18:44:11,-34.2,142.15,40.96,93,0,5.75
3,Khatanga,RU,2022-05-05 18:44:12,71.9667,102.5,30.74,95,100,9.42
4,Marawi,PH,2022-05-05 18:38:38,7.9986,124.2928,69.13,94,36,1.72
5,Zorritos,PE,2022-05-05 18:44:12,-3.6805,-80.6782,82.69,70,100,13.33
6,Walvis Bay,NA,2022-05-05 18:44:13,-22.9575,14.5053,66.09,45,0,8.93
7,Cape Town,ZA,2022-05-05 18:42:54,-33.9258,18.4232,60.12,89,20,5.75
8,Hasaki,JP,2022-05-05 18:38:47,35.7333,140.8333,59.4,80,100,9.91
9,Cuitzeo,MX,2022-05-05 18:44:13,20.3333,-102.7833,82.47,31,15,6.6
10,Cherskiy,RU,2022-05-05 18:44:14,68.75,161.3,31.24,88,100,5.95
11,Avarua,CK,2022-05-05 18:44:14,-21.2078,-159.775,78.85,89,100,4.61
12,Mataura,NZ,2022-05-05 18:44:15,-46.1927,168.8643,52.48,90,84,3.13
13,Jamestown,US,2022-05-05 18:39:43,42.097,-79.2353,65.52,60,0,9.22
14,Hilo,US,2022-05-05 18:39:46,19.7297,-155.09,77.29,96,100,0.0
15,Carnarvon,AU,2022-05-05 18:44:15,-24.8667,113.6333,64.47,52,0,6.91
16,Rikitea,PF,2022-05-05 18:44:16,-23.1203,-134.9692,78.26,84,41,15.08
17,Luderitz,NA,2022-05-05 18:44:16,-26.6481,15.1594,63.14,64,0,6.33
18,Nanortalik,GL,2022-05-05 18:43:16,60.1432,-45.2371,34.12,77,100,10.98
19,Capinota,BO,2022-05-05 18:44:17,-17.7167,-66.2333,81.81,18,0,3.56
20,Yellowknife,CA,2022-05-05 18:40:35,62.456,-114.3525,48.72,61,20,8.05
21,Ribeira Grande,PT,2022-05-05 18:44:18,38.5167,-28.7,64.8,88,75,11.5
22,Bluff,NZ,2022-05-05 18:44:18,-46.6,168.3333,52.81,86,92,5.82
23,Busselton,AU,2022-05-05 18:44:19,-33.65,115.3333,55.51,59,0,15.26
24,Port Alfred,ZA,2022-05-05 18:44:19,-33.5906,26.891,71.31,59,0,4.16
25,East London,ZA,2022-05-05 18:44:19,-33.0153,27.9116,72.54,78,0,5.75
26,Atuona,PF,2022-05-05 18:44:20,-9.8,-139.0333,78.49,75,100,13.96
27,Albany,US,2022-05-05 18:44:20,42.6001,-73.9662,67.59,42,99,5.35
28,Airai,TL,2022-05-05 18:44:21,-8.9266,125.4092,59.43,93,42,3.02
29,Talnakh,RU,2022-05-05 18:44:21,69.4865,88.3972,16.21,96,100,8.03
30,Tiksi,RU,2022-05-05 18:44:22,71.6872,128.8694,2.23,100,92,6.13
31,Ushuaia,AR,2022-05-05 18:44:22,-54.8,-68.3,49.66,46,40,18.41
32,Tsumeb,NA,2022-05-05 18:44:23,-19.2333,17.7167,64.09,40,0,7.87
33,Hithadhoo,MV,2022-05-05 18:44:23,-0.6,73.0833,83.91,74,100,16.87
34,Kuusamo,FI,2022-05-05 18:44:24,65.9667,29.1833,33.84,86,100,8.05
35,Tommot,RU,2022-05-05 18:44:24,58.9564,126.2925,28.45,97,92,6.29
36,Ostrovnoy,RU,2022-05-05 18:44:24,68.0531,39.5131,16.99,88,4,9.42
37,Kapaa,US,2022-05-05 18:41:33,22.0752,-159.319,77.32,80,40,16.11
38,Qaanaaq,GL,2022-05-05 18:44:25,77.484,-69.3632,19.45,78,5,6.42
39,Bandarbeyla,SO,2022-05-05 18:44:25,9.4942,50.8122,82.2,85,4,9.73
40,Beringovskiy,RU,2022-05-05 18:44:26,63.05,179.3167,17.4,85,14,3.51
41,Kavieng,PG,2022-05-05 18:35:55,-2.5744,150.7967,82.74,78,100,12.68
42,Georgetown,MY,2022-05-05 18:39:55,5.4112,100.3354,82.33,88,20,3.44
43,Portland,US,2022-05-05 18:38:11,45.5234,-122.6762,51.04,90,100,9.22
44,Saint-Philippe,RE,2022-05-05 18:44:27,-21.3585,55.7679,76.59,86,92,16.82
45,Vostok,RU,2022-05-05 18:44:27,46.4856,135.8833,48.63,64,100,5.97
46,Rio Gallegos,AR,2022-05-05 18:44:27,-51.6226,-69.2181,57.25,38,40,17.27
47,Torbay,CA,2022-05-05 18:44:28,47.6666,-52.7314,47.17,76,100,17.27
48,Sokyryany,UA,2022-05-05 18:45:28,48.4475,27.4168,48.69,58,6,6.53
49,Lorengau,PG,2022-05-05 18:45:29,-2.0226,147.2712,80.73,82,14,4.94
50,Vaini,TO,2022-05-05 18:45:29,-21.2,-175.2,69.96,94,20,1.14
51,Celestun,MX,2022-05-05 18:45:30,20.8667,-90.4,91.11,56,13,6.71
52,Faya,SA,2022-05-05 18:45:30,18.3851,42.4509,66.72,39,70,2.37
53,Port Elizabeth,ZA,2022-05-05 18:45:24,-33.918,25.5701,62.31,73,0,2.3
54,Sola,VU,2022-05-05 18:45:31,-13.8833,167.55,81.95,72,3,6.53
55,Hermanus,ZA,2022-05-05 18:45:31,-34.4187,19.2345,59.81,92,15,6.71
56,Tudela,ES,2022-05-05 18:45:32,42.0617,-1.6045,63.5,62,0,20.89
57,Camana,PE,2022-05-05 18:45:32,-16.6228,-72.7111,70.18,78,10,7.96
58,Mareeba,AU,2022-05-05 18:45:33,-17.0,145.4333,67.44,94,7,2.04
59,Bischofswerda,DE,2022-05-05 18:45:33,51.1277,14.1797,58.15,81,100,5.35
60,Omsukchan,RU,2022-05-05 18:45:34,62.5333,155.8,21.31,97,100,6.49
61,Castro,BR,2022-05-05 18:45:34,-24.7911,-50.0119,67.55,66,68,2.46
62,Namatanai,PG,2022-05-05 18:45:35,-3.6667,152.4333,79.5,82,100,7.96
63,Boa Vista,BR,2022-05-05 18:45:35,2.8197,-60.6733,78.78,83,75,6.91
64,Lima,PE,2022-05-05 18:43:27,-12.0432,-77.0282,66.45,73,0,6.91
65,Teguise,ES,2022-05-05 18:45:36,29.0605,-13.564,66.42,68,20,24.16
66,Niono,ML,2022-05-05 18:45:36,14.2526,-5.993,98.71,11,29,7.54
67,Puerto Ayora,EC,2022-05-05 18:45:09,-0.7393,-90.3518,80.56,87,100,7.78
68,Sal,JO,2022-05-05 18:45:37,32.5694,35.9119,54.84,76,42,16.28
69,Kalmunai,LK,2022-05-05 18:45:37,7.4167,81.8167,81.43,80,100,3.65
70,Columbus,US,2022-05-05 18:45:38,39.9612,-82.9988,65.01,72,100,4.61
71,Esperance,AU,2022-05-05 18:45:38,-33.8667,121.9,49.84,79,5,7.96
72,San Andres,CO,2022-05-05 18:45:38,12.5847,-81.7006,86.02,79,100,11.5
73,Eskil,TR,2022-05-05 18:45:39,38.4017,33.4131,48.45,66,71,11.12
74,Ilulissat,GL,2022-05-05 18:37:11,69.2167,-51.1,24.82,54,0,10.36
75,Marsa Matruh,EG,2022-05-05 18:45:40,31.3525,27.2453,64.6,68,20,12.66
76,Severo-Kurilsk,RU,2022-05-05 18:45:40,50.6789,156.125,33.3,88,36,8.79
77,Sinnamary,GF,2022-05-05 18:45:41,5.3833,-52.95,81.07,82,90,7.72
78,Butaritari,KI,2022-05-05 18:45:41,3.0707,172.7902,81.86,68,100,17.65
79,Hofn,IS,2022-05-05 18:45:41,64.2539,-15.2082,40.3,91,100,12.64
80,Kilakarai,IN,2022-05-05 18:45:42,9.2333,78.7833,85.1,66,100,4.12
81,Punta Arenas,CL,2022-05-05 18:45:42,-53.15,-70.9167,50.11,57,75,29.93
82,Sao Filipe,CV,2022-05-05 18:45:43,14.8961,-24.4956,73.78,77,83,6.44
83,Prostejov,CZ,2022-05-05 18:45:43,49.4719,17.1118,62.67,96,94,1.99
84,Berlevag,NO,2022-05-05 18:45:44,70.8578,29.0864,33.6,76,100,16.69
85,Richards Bay,ZA,2022-05-05 18:45:44,-28.783,32.0377,67.19,93,1,7.02
86,Provideniya,RU,2022-05-05 18:45:45,64.3833,-173.3,27.81,84,66,3.15
87,Arraial Do Cabo,BR,2022-05-05 18:45:45,-22.9661,-42.0278,78.76,61,40,12.66
88,Kamenka,RU,2022-05-05 18:45:45,51.3223,42.7678,40.89,59,82,7.58
89,Belmonte,BR,2022-05-05 18:35:59,-15.8631,-38.8828,82.54,74,0,10.98
90,Pevek,RU,2022-05-05 18:45:46,69.7008,170.3133,23.7,94,98,6.76
91,Souillac,MU,2022-05-05 18:45:46,-20.5167,57.5167,77.38,83,75,19.57
92,Vardo,NO,2022-05-05 18:45:47,70.3705,31.1107,35.58,69,0,18.41
93,Hatillo,PR,2022-05-05 18:46:47,18.4863,-66.8254,88.16,72,21,11.99
94,Kingaroy,AU,2022-05-05 18:46:48,-26.5333,151.8333,64.44,100,100,3.44
95,Hobart,AU,2022-05-05 18:46:48,-42.8794,147.3294,57.06,96,100,14.97
96,Kavaratti,IN,2022-05-05 18:40:03,10.5669,72.642,85.26,72,100,9.91
97,Yakeshi,CN,2022-05-05 18:46:49,49.2833,120.7333,40.6,43,100,12.5
98,Huntsville,US,2022-05-05 18:42:00,34.7304,-86.5861,87.96,59,20,11.5
99,Leningradskiy,RU,2022-05-05 18:38:33,69.3833,178.4167,11.89,95,60,4.45
100,Marsabit,KE,2022-05-05 18:46:50,2.3284,37.9899,69.82,66,67,14.05
101,Cayenne,GF,2022-05-05 18:46:50,4.9333,-52.3333,84.24,1,75,8.05
102,Bethel,US,2022-05-05 18:46:50,41.3712,-73.414,72.19,36,0,8.05
103,Port Moresby,PG,2022-05-05 18:46:51,-9.4431,147.1797,76.42,100,40,5.75
104,Biscarrosse,FR,2022-05-05 18:46:51,44.3945,-1.1672,60.75,59,0,10.36
105,Cabo San Lucas,MX,2022-05-05 18:46:52,22.8909,-109.9124,81.61,54,0,3.0
106,Surman,LY,2022-05-05 18:46:52,32.7567,12.5716,81.39,31,100,11.41
107,Ancud,CL,2022-05-05 18:43:04,-41.8697,-73.8203,53.98,92,98,14.63
108,Dzaoudzi,YT,2022-05-05 18:46:53,-12.7887,45.2699,80.49,74,75,12.66
109,Lebu,CL,2022-05-05 18:46:53,-37.6167,-73.65,58.86,76,64,7.54
110,Hay River,CA,2022-05-05 18:45:37,60.8156,-115.7999,58.98,26,20,6.91
111,Shitanjing,CN,2022-05-05 18:46:54,39.2342,106.3439,55.76,30,60,4.52
112,Constitucion,CL,2022-05-05 18:46:54,-35.3333,-72.4167,60.91,75,96,7.54
113,Tokonou,GN,2022-05-05 18:46:55,9.65,-9.7833,74.21,71,95,4.0
114,Barrow,US,2022-05-05 18:46:55,71.2906,-156.7887,14.02,85,100,14.97
115,Olafsvik,IS,2022-05-05 18:37:23,64.8945,-23.7142,37.36,81,100,7.72
116,Lagos,NG,2022-05-05 18:45:06,6.5833,3.75,84.52,83,100,6.89
117,Manta,EC,2022-05-05 18:46:56,-0.95,-80.7333,83.98,70,75,9.22
118,Mount Gambier,AU,2022-05-05 18:46:56,-37.8333,140.7667,42.71,100,100,8.05
119,Borogontsy,RU,2022-05-05 18:46:57,62.6683,131.1683,25.05,88,100,9.37
120,New Norfolk,AU,2022-05-05 18:46:57,-42.7826,147.0587,56.7,87,100,7.0
121,Banda Aceh,ID,2022-05-05 18:46:58,5.5577,95.3222,79.29,85,98,13.06
122,Kamiiso,JP,2022-05-05 18:46:58,41.8167,140.65,48.78,74,0,1.92
123,Los Llanos De Aridane,ES,2022-05-05 18:46:58,28.6585,-17.9182,64.15,77,75,10.36
124,La Rioja,ES,2022-05-05 18:46:59,42.25,-2.5,53.38,86,43,5.5
125,Nikolskoye,RU,2022-05-05 18:46:59,59.7035,30.7861,46.29,57,94,6.11
126,Grindavik,IS,2022-05-05 18:47:00,63.8424,-22.4338,41.47,65,40,25.32
127,South Lake Tahoe,US,2022-05-05 18:44:29,38.9332,-119.9844,65.97,34,0,19.57
128,Peniche,PT,2022-05-05 18:43:56,39.3558,-9.3811,67.28,84,3,8.32
129,Kupang,ID,2022-05-05 18:47:00,-10.1667,123.5833,79.12,80,6,10.45
130,Laguna,US,2022-05-05 18:47:01,38.421,-121.4238,75.97,48,0,11.5
131,San Policarpo,PH,2022-05-05 18:47:01,12.1791,125.5072,80.73,80,100,5.08
132,Namibe,AO,2022-05-05 18:47:02,-15.1961,12.1522,83.03,54,0,8.05
133,Skibbereen,IE,2022-05-05 18:47:02,51.55,-9.2667,56.1,90,83,9.26
134,Asau,RO,2022-05-05 18:47:03,46.4333,26.4,49.28,82,15,0.56
135,Xiaoyi,CN,2022-05-05 18:47:03,34.6178,109.703,69.06,49,9,3.29
136,Huarmey,PE,2022-05-05 18:47:04,-10.0681,-78.1522,71.42,74,66,10.96
137,Edemissen,DE,2022-05-05 18:47:04,52.387,10.2614,62.69,72,39,6.02
138,George Town,MY,2022-05-05 18:43:55,5.4112,100.3354,82.33,88,20,3.44
139,Chuy,UY,2022-05-05 18:48:05,-33.6971,-53.4616,66.04,59,100,5.28
140,Kaitangata,NZ,2022-05-05 18:48:05,-46.2817,169.8464,54.14,79,100,4.27
141,Ixtapa,MX,2022-05-05 18:48:06,20.7,-105.2,94.68,33,1,8.97
142,Hammerfest,NO,2022-05-05 18:48:06,70.6634,23.6821,37.85,75,75,4.61
143,Dikson,RU,2022-05-05 18:48:07,73.5069,80.5464,15.76,97,100,4.83
144,Tomatlan,MX,2022-05-05 18:46:10,19.9333,-105.25,93.67,34,6,10.98
145,Aras,ES,2022-05-05 18:48:07,42.5617,-2.356,57.61,51,20,9.22
146,Durnesti,RO,2022-05-05 18:48:08,47.7667,27.1,50.22,55,6,6.53
147,Pafos,CY,2022-05-05 18:48:08,34.7667,32.4167,65.98,68,20,9.22
148,Chocen,CZ,2022-05-05 18:48:09,50.0016,16.223,58.96,92,87,1.23
149,Mahebourg,MU,2022-05-05 18:48:09,-20.4081,57.7,77.29,83,75,19.57
150,Lucapa,AO,2022-05-05 18:48:10,-8.4192,20.7447,74.34,65,99,2.04
151,Bengkulu,ID,2022-05-05 18:48:10,-3.8004,102.2655,76.15,88,96,4.0
152,Petropavlovsk-Kamchatskiy,RU,2022-05-05 18:48:10,53.0452,158.6483,27.19,100,0,6.71
153,Samarai,PG,2022-05-05 18:48:11,-10.6167,150.6667,81.77,79,79,5.66
154,Middle Island,US,2022-05-05 18:48:11,40.8843,-72.9373,73.45,54,0,10.36
155,Clyde River,CA,2022-05-05 18:48:12,70.4692,-68.5914,26.83,74,0,10.36
156,Roald,NO,2022-05-05 18:48:13,62.5833,6.1333,52.75,66,75,10.36
157,Vila Franca Do Campo,PT,2022-05-05 18:48:13,37.7167,-25.4333,64.81,78,100,12.91
158,Hauknes,NO,2022-05-05 18:48:14,66.2833,14.0667,38.79,88,75,4.61
159,Sitka,US,2022-05-05 18:48:14,57.0531,-135.33,44.49,76,75,3.44
160,Mannarakkat,IN,2022-05-05 18:48:15,10.9833,76.4667,76.42,87,100,4.47
161,Brazzaville,CG,2022-05-05 18:48:00,-4.2658,15.2832,79.99,72,100,1.3
162,Cidreira,BR,2022-05-05 18:48:15,-30.1811,-50.2056,67.19,66,100,9.4
163,Beyla,GN,2022-05-05 18:48:16,8.6833,-8.6333,71.51,88,100,4.07
164,Russell,US,2022-05-05 18:48:16,32.3502,-85.1999,89.91,54,0,8.05
165,Te Anau,NZ,2022-05-05 18:48:17,-45.4167,167.7167,49.66,93,27,1.68
166,Urumqi,CN,2022-05-05 18:48:17,43.801,87.6005,63.55,68,0,15.66
167,Presidencia Roque Saenz Pena,AR,2022-05-05 18:48:18,-26.7852,-60.4388,77.04,47,24,5.86
168,Bjerkvik,NO,2022-05-05 18:48:18,68.5597,17.5189,39.02,97,100,17.02
169,Ahipara,NZ,2022-05-05 18:48:19,-35.1667,173.1667,58.37,89,18,5.99
170,Calabar,NG,2022-05-05 18:45:44,4.9517,8.322,77.63,92,100,4.74
171,Kihei,US,2022-05-05 18:48:19,20.785,-156.4656,75.97,81,100,13.8
172,Swindon,GB,2022-05-05 18:46:58,51.558,-1.7812,66.94,59,0,5.75
173,Phulabani,IN,2022-05-05 18:48:20,20.4667,84.2333,78.8,66,0,5.01
174,Hohhot,CN,2022-05-05 18:48:20,40.8106,111.6522,52.09,37,0,11.18
175,The Valley,AI,2022-05-05 18:43:35,18.217,-63.0578,85.86,65,40,16.11
176,Kaeo,NZ,2022-05-05 18:48:21,-35.1,173.7833,60.21,88,59,6.6
177,Menongue,AO,2022-05-05 18:48:21,-14.6585,17.691,60.55,63,7,2.57
178,Kidal,ML,2022-05-05 18:48:22,18.4411,1.4078,97.57,9,100,10.02
179,Fomboni,KM,2022-05-05 18:48:22,-12.28,43.7425,82.4,71,86,16.87
180,Vila Velha,BR,2022-05-05 18:48:25,-20.3297,-40.2925,80.55,83,75,13.8
181,Chiknayakanhalli,IN,2022-05-05 18:48:26,13.4172,76.6228,74.68,72,100,9.89
182,Batagay-Alyta,RU,2022-05-05 18:48:26,67.8006,130.4114,3.78,93,87,6.33
183,Taoudenni,ML,2022-05-05 18:38:37,22.6783,-3.9836,95.52,10,16,7.47
184,Stulovo,RU,2022-05-05 18:48:27,58.7225,50.1439,30.83,64,10,7.27
185,Ponta Do Sol,PT,2022-05-05 18:49:27,32.6667,-17.1,68.72,68,30,5.1
186,Mar Del Plata,AR,2022-05-05 18:48:09,-38.0023,-57.5575,70.95,52,0,16.11
187,Pringsewu,ID,2022-05-05 18:49:28,-5.3582,104.9744,73.89,97,100,0.83
188,Nampula,MZ,2022-05-05 18:49:28,-15.1165,39.2666,73.35,78,40,6.91
189,Alghero,IT,2022-05-05 18:49:29,40.5589,8.3181,59.09,94,20,10.36
190,Bilma,NE,2022-05-05 18:49:29,18.6853,12.9164,97.07,11,0,7.52
191,Yumen,CN,2022-05-05 18:49:29,40.2833,97.2,61.93,31,100,25.59
192,Miri,MY,2022-05-05 18:49:30,4.4148,114.0089,78.94,94,20,1.14
193,Yerofey Pavlovich,RU,2022-05-05 18:49:30,53.9667,121.9667,29.79,63,100,4.47
194,Lodja,CD,2022-05-05 18:49:31,-3.4833,23.4333,76.89,73,100,1.77
195,San Pedro,PH,2022-05-05 18:49:30,14.35,121.0167,83.43,73,20,4.61
196,Villamontes,BO,2022-05-05 18:49:31,-21.25,-63.5,81.7,21,0,7.52
197,Longyearbyen,SJ,2022-05-05 18:49:32,78.2186,15.6401,22.84,68,75,5.75
198,Ankara,TR,2022-05-05 18:46:44,39.9199,32.8543,51.19,59,75,10.36
199,Fort Nelson,CA,2022-05-05 18:45:48,58.8053,-122.7002,51.39,28,75,4.61
200,Thompson,CA,2022-05-05 18:47:28,55.7435,-97.8558,37.56,65,100,10.36
201,Tasiilaq,GL,2022-05-05 18:49:32,65.6145,-37.6368,28.56,65,44,1.23
202,Puerto Escondido,MX,2022-05-05 18:49:33,15.85,-97.0667,88.9,48,33,9.22
203,Carballo,ES,2022-05-05 18:47:34,43.213,-8.691,67.42,84,2,9.01
204,Luanda,AO,2022-05-05 18:47:03,-8.8368,13.2343,80.6,78,0,10.36
205,Sur,OM,2022-05-05 18:49:33,22.5667,59.5289,81.68,64,0,6.76
206,Alyangula,AU,2022-05-05 18:49:34,-13.8483,136.4192,73.27,94,75,0.0
207,Tecoanapa,MX,2022-05-05 18:49:34,16.5167,-98.75,85.17,52,100,9.37
208,Port Lincoln,AU,2022-05-05 18:46:37,-34.7333,135.8667,56.46,56,95,11.1
209,Lagoa,PT,2022-05-05 18:49:35,39.05,-27.9833,61.99,85,100,27.07
210,Coihaique,CL,2022-05-05 18:49:35,-45.5752,-72.0662,50.61,50,40,11.5
211,Bloemfontein,ZA,2022-05-05 18:49:36,-29.1211,26.214,53.08,62,0,1.14
212,Avera,US,2022-05-05 18:49:36,33.194,-82.5271,89.11,36,4,6.15
213,Fairbanks,US,2022-05-05 18:49:37,64.8378,-147.7164,50.31,61,40,1.99
214,Ta Khmau,KH,2022-05-05 18:49:37,11.4833,104.95,82.45,89,40,4.61
215,Novomikhaylovskiy,RU,2022-05-05 18:49:37,44.2581,38.8578,51.06,92,100,6.87
216,Tyret Pervaya,RU,2022-05-05 18:49:38,53.6703,102.3106,38.71,44,100,12.44
217,Lompoc,US,2022-05-05 18:49:38,34.6391,-120.4579,69.94,89,40,6.91
218,Oktyabrskoye,RU,2022-05-05 18:49:39,43.0645,44.7417,46.54,93,100,8.95
219,Yulara,AU,2022-05-05 18:49:39,-25.2406,130.9889,44.44,57,0,5.75
220,Gravata,BR,2022-05-05 18:49:40,-8.2011,-35.5647,77.79,70,100,11.9
221,Victor Harbor,AU,2022-05-05 18:49:40,-35.5667,138.6167,46.69,78,50,10.25
222,Olinda,BR,2022-05-05 18:49:40,-8.0089,-34.8553,85.73,66,40,10.36
223,Poum,NC,2022-05-05 18:49:41,-20.2333,164.0167,77.52,78,51,5.86
224,Wanning,CN,2022-05-05 18:49:41,18.8003,110.3967,76.37,90,94,4.09
225,Coquimbo,CL,2022-05-05 18:47:36,-29.9533,-71.3436,60.53,72,75,11.5
226,Santa Cruz,BO,2022-05-05 18:49:31,-17.8,-63.1667,78.85,31,0,4.61
227,Marshall,US,2022-05-05 18:49:42,34.3834,-86.3333,88.09,56,40,10.36
228,Komsomolskiy,UZ,2022-05-05 18:49:42,40.4272,71.7189,70.52,60,6,4.61
229,Sao Jose Da Coroa Grande,BR,2022-05-05 18:49:43,-8.8978,-35.1478,81.54,78,100,9.46
230,Hatta,IN,2022-05-05 18:49:43,24.1167,79.6,91.53,18,1,6.06
231,Bereda,ES,2022-05-05 18:50:44,43.2686,-7.5406,58.41,80,1,6.04
232,Santiago Del Estero,AR,2022-05-05 18:47:04,-27.7951,-64.2615,76.84,27,100,11.03
233,Ugoofaaru,MV,2022-05-05 18:50:44,5.6667,73.0,85.39,73,100,11.07
234,Kharp,RU,2022-05-05 18:50:45,66.8014,65.8081,14.61,97,93,3.65
235,Katsuura,JP,2022-05-05 18:50:45,35.1333,140.3,63.52,80,100,8.21
236,Hervey Bay,AU,2022-05-05 18:50:46,-25.2986,152.8535,73.51,84,3,7.61
237,Northam,GB,2022-05-05 18:50:46,51.0333,-4.2167,58.39,88,20,7.23
238,Tuktoyaktuk,CA,2022-05-05 18:50:47,69.4541,-133.0374,24.8,93,100,18.41
239,Chokurdakh,RU,2022-05-05 18:50:47,70.6333,147.9167,17.49,96,100,7.07
240,Usinsk,RU,2022-05-05 18:47:29,65.9939,57.5281,25.99,79,100,12.68
241,Priiskovyy,RU,2022-05-05 18:50:48,51.9333,116.6333,32.02,44,82,5.01
242,Sao Luis De Montes Belos,BR,2022-05-05 18:50:48,-16.525,-50.3722,83.32,43,0,4.21
243,Nemuro,JP,2022-05-05 18:50:49,43.3236,145.575,39.76,96,15,9.28
244,Baculin,PH,2022-05-05 18:50:53,7.4525,126.5842,77.38,83,100,5.64
245,Saint George,US,2022-05-05 18:47:41,37.1041,-113.5841,81.79,18,0,6.91
246,Lipari,IT,2022-05-05 18:50:54,38.4674,14.954,68.11,77,52,25.26
247,Veraval,IN,2022-05-05 18:50:54,20.9,70.3667,81.28,81,0,11.63
248,Fenyi,CN,2022-05-05 18:50:55,27.8112,114.6681,65.86,75,69,0.83
249,Lata,PT,2022-05-05 18:50:55,40.1629,-8.3327,64.18,65,11,3.96
250,Quatre Cocos,MU,2022-05-05 18:50:56,-20.2078,57.7625,77.11,82,49,21.52
251,Tura,IN,2022-05-05 18:50:56,25.5198,90.2201,69.15,92,4,4.16
252,Ardakan,IR,2022-05-05 18:50:56,32.31,54.0175,74.17,37,75,6.6
253,Margate,GB,2022-05-05 18:50:57,51.3813,1.3862,58.3,74,61,1.99
254,Sun Valley,US,2022-05-05 18:47:35,39.5963,-119.776,71.11,22,75,24.16
255,Mana,GF,2022-05-05 18:50:57,5.6592,-53.7767,82.29,75,100,6.96
256,Saldanha,ZA,2022-05-05 18:50:58,-33.0117,17.9442,57.25,96,44,6.13
257,Caledonia,US,2022-05-05 18:50:58,42.8078,-87.9242,59.14,70,0,6.91
258,Kingori,TZ,2022-05-05 18:51:01,-3.2833,36.9833,68.38,83,75,5.75
259,Havre-Saint-Pierre,CA,2022-05-05 18:51:01,50.2334,-63.5986,37.4,62,98,17.05
260,Bilibino,RU,2022-05-05 18:51:02,68.0546,166.4372,30.74,97,100,1.95
261,Upernavik,GL,2022-05-05 18:51:02,72.7868,-56.1549,14.94,79,45,7.58
262,Vestmannaeyjar,IS,2022-05-05 18:51:03,63.4427,-20.2734,42.87,61,96,25.68
263,Salekhard,RU,2022-05-05 18:51:03,66.53,66.6019,20.32,83,62,13.09
264,Maniitsoq,GL,2022-05-05 18:51:04,65.4167,-52.9,29.37,65,2,4.18
265,Pueblo Nuevo,MX,2022-05-05 18:51:04,23.3833,-105.3833,80.28,16,0,8.84
266,Klaksvik,FO,2022-05-05 18:51:05,62.2266,-6.589,47.32,81,100,19.48
267,Sangar,RU,2022-05-05 18:51:05,63.9242,127.4739,20.34,88,18,8.41
268,Balkhash,KZ,2022-05-05 18:51:06,46.844,74.9804,61.23,64,6,8.93
269,Kruisfontein,ZA,2022-05-05 18:51:06,-34.0033,24.7314,62.6,64,6,1.83
270,Marang,MY,2022-05-05 18:51:06,5.2056,103.2059,78.71,88,90,4.29
271,Serenje,ZM,2022-05-05 18:51:07,-13.2325,30.2352,56.82,88,6,4.0
272,Oranienburg,DE,2022-05-05 18:48:01,52.75,13.2333,60.91,60,84,5.32
273,Porbandar,IN,2022-05-05 18:51:08,21.6422,69.6093,82.15,75,0,11.52
274,Nichinan,JP,2022-05-05 18:51:08,31.6,131.3667,66.52,92,100,9.95
275,Buraydah,SA,2022-05-05 18:52:09,26.326,43.975,90.05,18,1,9.57
276,Mocuba,MZ,2022-05-05 18:52:09,-16.8392,36.9856,68.54,95,88,2.84
277,Wattegama,LK,2022-05-05 18:52:10,6.7989,81.4808,76.32,94,100,3.89
278,Tessalit,ML,2022-05-05 18:52:10,20.1986,1.0114,97.11,12,100,7.07
279,Teguldet,RU,2022-05-05 18:52:10,57.3064,88.1667,42.55,61,98,2.62
280,Troitsko-Pechorsk,RU,2022-05-05 18:52:11,62.7084,56.1964,25.05,88,19,4.38
281,Saint-Pierre,RE,2022-05-05 18:52:11,-21.3393,55.4781,76.68,78,40,23.02
282,Pinawa,CA,2022-05-05 18:52:12,50.1489,-95.8811,65.89,38,18,7.38
283,Nhulunbuy,AU,2022-05-05 18:52:13,-12.2333,136.7667,81.21,83,75,8.05
284,Aswan,EG,2022-05-05 18:51:41,24.0934,32.907,85.3,11,0,9.22
285,Kerema,PG,2022-05-05 18:52:13,-7.9631,145.7785,76.91,85,99,2.86
286,Jvari,GE,2022-05-05 18:52:14,42.7169,42.052,48.29,99,100,1.52
287,Nueva Gorgona,PA,2022-05-05 18:52:14,8.55,-79.8667,82.22,90,100,4.45
288,Bay Roberts,CA,2022-05-05 18:52:15,47.5999,-53.2648,47.95,82,100,7.0
289,Nushki,PK,2022-05-05 18:52:15,29.5542,66.0215,78.78,17,0,4.81
290,Kadoma,JP,2022-05-05 18:52:16,34.7333,135.5833,62.58,74,100,3.44
291,Matara,LK,2022-05-05 18:52:16,5.9485,80.5353,79.77,87,100,10.47
292,Guerrero Negro,MX,2022-05-05 18:49:15,27.9769,-114.0611,71.15,56,8,11.65
293,Kiunga,PG,2022-05-05 18:52:17,-6.1219,141.2906,71.98,100,92,2.08
294,North Bend,US,2022-05-05 18:52:17,43.4065,-124.2243,56.25,94,100,10.36
295,Mayo,US,2022-05-05 18:52:18,38.8876,-76.5119,68.45,72,100,5.99
296,Faanui,PF,2022-05-05 18:52:18,-16.4833,-151.75,81.36,73,43,7.36
297,Muncar,ID,2022-05-05 18:52:19,-8.4333,114.3333,76.57,92,23,0.58
298,Chunskiy,RU,2022-05-05 18:52:19,56.0815,99.6342,36.36,53,100,6.26
299,Pangnirtung,CA,2022-05-05 18:52:20,66.1451,-65.7125,14.0,79,20,6.91
300,Jinhua,CN,2022-05-05 18:52:20,29.1078,119.6547,61.99,81,0,2.8
301,Hadejia,NG,2022-05-05 18:52:21,12.4498,10.0444,98.01,17,100,7.25
302,Kodinsk,RU,2022-05-05 18:52:21,58.6881,99.1844,28.24,92,93,4.05
303,Sorland,NO,2022-05-05 18:52:22,67.667,12.6934,40.86,75,100,31.85
304,Dingle,PH,2022-05-05 18:52:22,10.9995,122.6711,77.41,87,93,6.26
305,Kodiak,US,2022-05-05 18:52:22,57.79,-152.4072,42.31,81,100,12.66
306,Aquiraz,BR,2022-05-05 18:51:09,-3.9014,-38.3911,82.49,86,100,12.06
307,Hobyo,SO,2022-05-05 18:48:49,5.3505,48.5268,84.27,78,4,22.55
308,Ghanzi,BW,2022-05-05 18:52:23,-21.5667,21.7833,63.79,34,0,4.65
309,Uvat,RU,2022-05-05 18:52:24,59.1433,68.8953,42.22,95,100,3.22
310,Ust-Maya,RU,2022-05-05 18:52:24,60.4167,134.5333,33.46,91,99,6.6
311,Tarakan,ID,2022-05-05 18:52:25,3.3,117.6333,78.3,94,20,0.0
312,Taua,BR,2022-05-05 18:52:25,-5.9667,-40.3,90.84,35,37,12.77
313,Buala,SB,2022-05-05 18:52:26,-8.145,159.5921,80.17,79,13,5.66
314,Tomino,ES,2022-05-05 18:52:26,41.9877,-8.755,72.54,65,0,2.17
315,La Guardia,BO,2022-05-05 18:52:27,-17.8917,-63.3305,77.9,31,0,4.61
316,Berezanka,UA,2022-05-05 18:52:27,46.8526,31.388,52.0,53,6,12.06
317,Chokwe,MZ,2022-05-05 18:52:28,-24.5333,32.9833,68.74,86,43,5.12
318,Palestine,PS,2022-05-05 18:51:55,31.9216,35.2033,56.62,87,91,20.62
319,Isangel,VU,2022-05-05 18:52:28,-19.55,169.2667,73.51,88,1,4.61
320,Ambilobe,MG,2022-05-05 18:53:29,-13.2,49.05,72.52,90,7,3.02
321,La Ronge,CA,2022-05-05 18:53:29,55.1001,-105.2842,39.45,81,75,14.97
322,Sawang Daen Din,TH,2022-05-05 18:53:29,17.4753,103.4575,81.18,82,21,6.6
323,Panguipulli,CL,2022-05-05 18:53:30,-39.6333,-72.3333,59.86,75,89,2.75
324,Neiafu,TO,2022-05-05 18:53:30,-18.65,-173.9833,68.68,100,20,0.0
325,Udachnyy,RU,2022-05-05 18:53:31,66.4167,112.4,32.45,86,100,5.86
326,Geraldton,AU,2022-05-05 18:53:31,-28.7667,114.6,59.41,44,0,11.5
327,Valentin Gomez Farias,MX,2022-05-05 18:53:32,28.2167,-106.5833,77.25,8,0,0.65
328,Vao,NC,2022-05-05 18:49:10,-22.6667,167.4833,74.97,77,5,17.76
329,Torgau,DE,2022-05-05 18:53:32,51.5667,13.0,60.75,68,100,7.72
330,Villa Bruzual,VE,2022-05-05 18:53:33,9.3328,-69.1208,88.36,53,100,3.13
331,Riberalta,BO,2022-05-05 18:53:34,-10.9833,-66.1,82.6,51,13,9.22
332,Louis Trichardt,ZA,2022-05-05 18:53:34,-23.0439,29.9032,61.32,72,24,2.89
333,Haines Junction,CA,2022-05-05 18:53:35,60.7522,-137.5108,44.55,42,100,6.91
334,Kultuk,RU,2022-05-05 18:53:35,51.7208,103.6956,30.74,79,100,2.68
335,Cody,US,2022-05-05 18:53:27,44.5263,-109.0565,71.38,30,0,8.05
336,Paka,MY,2022-05-05 18:53:36,4.6374,103.4368,78.73,94,100,0.0
337,Maputo,MZ,2022-05-05 18:50:41,-25.9653,32.5892,73.22,85,75,4.61
338,Truth Or Consequences,US,2022-05-05 18:53:36,33.1284,-107.2528,76.91,14,0,4.41
339,Husavik,IS,2022-05-05 18:53:37,66.0449,-17.3389,38.89,78,83,11.32
340,Alice Springs,AU,2022-05-05 18:53:37,-23.7,133.8833,38.75,65,0,5.75
341,Skjervoy,NO,2022-05-05 18:53:38,70.0311,20.9714,39.2,78,100,10.16
342,Turkistan,KZ,2022-05-05 18:53:38,43.0,68.0,75.34,38,89,6.53
343,San Patricio,US,2022-05-05 18:53:38,28.017,-97.5169,87.67,66,100,15.82
344,Coahuayana,MX,2022-05-05 18:53:39,18.7333,-103.6833,89.38,48,12,8.12
345,Rethimnon,GR,2022-05-05 18:53:39,35.3647,24.4714,65.82,58,0,2.04
346,Gladstone,AU,2022-05-05 18:53:40,-23.85,151.25,67.93,100,40,0.0
347,Nishihara,JP,2022-05-05 18:53:40,26.1842,127.7558,70.88,100,75,4.61
348,Abha,SA,2022-05-05 18:52:58,18.2164,42.5053,66.45,37,20,6.91
349,Stolin,BY,2022-05-05 18:53:41,51.8912,26.846,45.91,64,13,7.18
350,Bredasdorp,ZA,2022-05-05 18:53:42,-34.5322,20.0403,59.9,90,30,5.95
351,Davila,PH,2022-05-05 18:53:42,18.4726,120.5763,80.58,79,40,6.08
352,West Odessa,US,2022-05-05 18:53:42,31.8424,-102.4988,80.47,24,0,10.78
353,Norman Wells,CA,2022-05-05 18:53:43,65.282,-126.8329,35.64,75,100,14.97
354,Saskylakh,RU,2022-05-05 18:53:43,71.9167,114.0833,18.7,95,100,8.97
355,Grand Island,US,2022-05-05 18:53:44,40.925,-98.342,51.75,89,100,8.05
356,Susanville,US,2022-05-05 18:53:10,40.4163,-120.653,67.91,26,0,25.01
357,Malacacheta,BR,2022-05-05 18:53:44,-17.8422,-42.0767,80.51,51,95,2.64
358,Dauriya,RU,2022-05-05 18:53:44,49.9333,116.8667,35.47,36,96,7.74
359,Victoria,HK,2022-05-05 18:48:57,22.2855,114.1577,77.18,81,0,5.99
360,Ambon,ID,2022-05-05 18:53:45,-3.6954,128.1814,77.14,94,40,1.14
361,Svetlyy,RU,2022-05-05 18:53:45,54.675,20.1347,51.85,96,100,4.41
362,Belyy Yar,RU,2022-05-05 18:53:46,53.6039,91.3903,39.09,48,0,2.24
363,Spring Hill,US,2022-05-05 18:51:14,28.4769,-82.5255,93.24,53,20,5.75
364,Alofi,NU,2022-05-05 18:54:46,-19.0595,-169.9187,73.29,88,36,5.75
365,Lazarev,RU,2022-05-05 18:54:47,52.225,141.5131,33.96,97,100,10.29
366,Miesbach,DE,2022-05-05 18:54:47,47.789,11.8338,56.39,93,100,0.85
367,Harper,LR,2022-05-05 18:54:48,4.375,-7.7169,81.0,83,54,6.87
368,Roma,US,2022-05-05 18:50:47,43.2128,-75.4557,67.37,38,0,6.91
369,Wanaka,NZ,2022-05-05 18:50:09,-44.7,169.15,44.11,90,11,1.01
370,Botngard,NO,2022-05-05 18:54:48,63.7653,9.8111,44.78,87,75,12.66
371,Alta Floresta,BR,2022-05-05 18:54:49,-9.8756,-56.0861,89.42,55,40,4.61
372,Billings,US,2022-05-05 18:50:08,45.7833,-108.5007,75.29,38,40,9.22
373,Muriwai Beach,NZ,2022-05-05 18:54:49,-36.8167,174.45,55.87,90,0,4.94
374,Manicore,BR,2022-05-05 18:54:50,-5.8092,-61.3003,81.57,90,63,2.3
375,Bubaque,GW,2022-05-05 18:54:50,11.2833,-15.8333,78.49,71,3,17.81
376,Mehamn,NO,2022-05-05 18:54:51,71.0357,27.8492,33.51,77,100,12.1
377,Pyapon,MM,2022-05-05 18:54:51,16.2833,95.6833,82.83,68,10,4.0
378,Shwebo,MM,2022-05-05 18:54:52,22.5667,95.7,79.52,66,6,4.36
379,Ingham,US,2022-05-05 18:54:52,42.6,-84.3833,60.03,54,0,8.05
380,Andenes,NO,2022-05-05 18:54:55,69.3143,16.1194,39.18,87,75,23.02
381,Encruzilhada Do Sul,BR,2022-05-05 18:54:55,-30.5439,-52.5219,63.3,63,7,4.7
382,Tuy Hoa,VN,2022-05-05 18:54:56,13.0833,109.3,75.97,93,100,4.16
383,Pascagoula,US,2022-05-05 18:54:56,30.3658,-88.5561,88.52,75,0,13.11
384,Vratnica,MK,2022-05-05 18:54:57,42.1433,21.1169,60.53,67,100,3.02
385,Salalah,OM,2022-05-05 18:54:57,17.0151,54.0924,81.5,82,0,5.39
386,Touros,BR,2022-05-05 18:54:58,-5.1989,-35.4608,76.62,92,100,15.17
387,Nantucket,US,2022-05-05 18:52:37,41.2835,-70.0995,62.74,68,0,13.8
388,Inta,RU,2022-05-05 18:54:58,66.0317,60.1659,25.38,92,100,8.43
389,Roebourne,AU,2022-05-05 18:54:59,-20.7833,117.1333,75.43,38,0,17.05
390,Padang,ID,2022-05-05 18:54:59,-0.9492,100.3543,75.25,89,100,4.59
391,Acari,PE,2022-05-05 18:54:59,-15.4311,-74.6158,79.9,54,5,9.64
392,Griffith,US,2022-05-05 18:55:00,41.5284,-87.4237,55.4,92,100,5.75
393,Eureka,US,2022-05-05 18:55:00,40.8021,-124.1637,54.75,75,100,7.0
394,Progreso,MX,2022-05-05 18:55:01,21.2833,-89.6667,96.12,53,44,12.37
395,Nakhon Nayok,TH,2022-05-05 18:55:01,14.1667,101.1,82.15,72,100,3.13
396,Dali,CN,2022-05-05 18:55:02,25.7,100.1833,57.13,82,78,2.75
397,Pauini,BR,2022-05-05 18:55:02,-7.7136,-66.9764,84.58,60,100,3.13
398,Hamilton,US,2022-05-05 18:50:10,39.1834,-84.5333,63.72,76,100,11.5
399,Vrangel,RU,2022-05-05 18:55:03,42.7297,133.0839,46.72,90,11,8.1
400,Talipparamba,IN,2022-05-05 18:55:03,12.05,75.35,77.99,85,100,2.13
401,Iracoubo,GF,2022-05-05 18:55:04,5.4802,-53.2011,81.73,76,100,7.4
402,Nuevo Progreso,MX,2022-05-05 18:55:04,23.1667,-97.95,92.53,55,4,14.88
403,Guatire,VE,2022-05-05 18:55:05,10.4762,-66.5427,89.2,63,100,4.76
404,Bambous Virieux,MU,2022-05-05 18:55:05,-20.3428,57.7575,77.25,83,75,19.57
405,Rouvroy,FR,2022-05-05 18:51:34,50.3925,2.904,59.68,82,38,8.3
406,Whitehorse,CA,2022-05-05 18:54:55,60.7161,-135.0538,45.01,45,40,8.05
407,Beira,MZ,2022-05-05 18:55:06,-19.8436,34.8389,71.69,88,20,5.75
408,Sabak,MY,2022-05-05 18:55:08,3.7675,100.9875,76.12,95,100,5.21
409,Pyaozerskiy,RU,2022-05-05 18:56:08,65.8333,31.1667,35.15,95,100,8.34
410,Zhanaozen,KZ,2022-05-05 18:56:08,43.3,52.8,70.03,54,99,12.46
411,Seymchan,RU,2022-05-05 18:56:09,62.8833,152.4333,28.15,91,100,5.55
412,Nyurba,RU,2022-05-05 18:56:09,63.2842,118.3319,31.21,98,100,8.84
413,Biskamzha,RU,2022-05-05 18:56:10,53.4497,89.5272,40.51,72,100,2.15
414,Praia,CV,2022-05-05 18:56:11,14.9215,-23.5087,79.34,50,0,17.27
415,Bouca,CF,2022-05-05 18:56:11,6.5105,18.2733,74.07,86,100,2.46
416,Araouane,ML,2022-05-05 18:56:12,18.9048,-3.5265,94.37,19,100,8.1
417,Virginia Beach,US,2022-05-05 18:56:12,36.8529,-75.978,71.06,74,46,3.0
418,Logrono,ES,2022-05-05 18:54:48,42.4667,-2.45,60.3,51,20,9.22
419,Aripuana,BR,2022-05-05 18:56:13,-9.1667,-60.6333,83.43,68,100,2.01
420,Aqtobe,KZ,2022-05-05 18:56:13,50.2797,57.2072,48.29,57,0,20.13
421,Porto San Giorgio,IT,2022-05-05 18:56:14,43.1827,13.7934,61.02,98,100,3.56
422,Ankang,CN,2022-05-05 18:56:14,32.68,109.0172,63.66,71,0,1.41
423,Gava,ES,2022-05-05 18:56:15,41.306,2.0012,65.59,73,20,5.75
424,Saluzzo,IT,2022-05-05 18:56:15,44.6464,7.4862,55.29,93,100,1.14
425,Yerbogachen,RU,2022-05-05 18:56:15,61.2767,108.0108,29.93,91,100,6.04
426,Gat,IL,2022-05-05 18:56:19,31.61,34.7642,65.08,100,27,12.12
427,Muli,MV,2022-05-05 18:56:20,2.9167,73.5667,82.76,73,100,11.34
428,Gazanjyk,TM,2022-05-05 18:56:20,39.2446,55.5154,78.71,44,9,11.03
429,Mount Isa,AU,2022-05-05 18:56:21,-20.7333,139.5,58.77,41,85,11.5
430,Oytal,KZ,2022-05-05 18:56:21,42.9057,73.2697,56.84,72,59,5.82
431,Lazaro Cardenas,MX,2022-05-05 18:56:22,17.9583,-102.2,83.48,61,88,10.2
432,Ulladulla,AU,2022-05-05 18:56:22,-35.35,150.4667,49.1,60,0,11.16
433,Zhireken,RU,2022-05-05 18:56:23,52.8249,117.3076,25.52,54,12,5.19
434,Priargunsk,RU,2022-05-05 18:56:23,50.3691,119.1012,37.2,33,8,8.43
435,Pombia,IT,2022-05-05 18:56:24,45.653,8.6336,54.48,90,100,3.0
436,Kikinda,RS,2022-05-05 18:54:26,45.8297,20.4653,60.82,64,12,7.43
437,Calama,CL,2022-05-05 18:56:24,-22.4667,-68.9333,72.09,14,0,17.27
438,Dudinka,RU,2022-05-05 18:56:25,69.4058,86.1778,16.63,91,100,15.73
439,Portmore,JM,2022-05-05 18:56:25,17.9702,-76.8672,87.03,69,20,28.77
440,Tuatapere,NZ,2022-05-05 18:56:26,-46.1333,167.6833,51.89,89,92,4.76
441,Fort-Shevchenko,KZ,2022-05-05 18:56:26,44.5086,50.263,60.26,83,46,25.14
442,Shimoda,JP,2022-05-05 18:56:27,34.6667,138.95,58.1,84,100,3.02
443,Pisco,PE,2022-05-05 18:56:27,-13.7,-76.2167,70.02,83,9,11.5
444,Lavrentiya,RU,2022-05-05 18:56:28,65.5833,-171.0,17.6,86,6,3.22
445,Killam,CA,2022-05-05 18:56:28,52.7834,-111.8518,69.75,24,93,16.11
446,Tonj,SS,2022-05-05 18:56:29,7.2737,28.6822,84.7,50,48,2.71
447,Awbari,LY,2022-05-05 18:56:29,26.5921,12.7805,87.67,10,0,8.81
448,Codrington,AU,2022-05-05 18:56:30,-38.2667,141.9667,47.66,88,87,4.94
449,Barmer,IN,2022-05-05 18:56:30,25.75,71.3833,86.16,24,34,10.74
450,Xuddur,SO,2022-05-05 18:56:31,4.1213,43.8894,76.69,75,9,11.52
451,Nouadhibou,MR,2022-05-05 18:56:31,20.931,-17.0347,71.58,64,19,18.41
452,Gogrial,SS,2022-05-05 18:56:31,8.5332,28.1004,88.41,45,100,4.54
453,Bunol,ES,2022-05-05 18:56:32,39.4167,-0.7833,63.21,64,9,3.71
454,San Cristobal,VE,2022-05-05 18:57:32,7.7669,-72.225,75.38,81,100,5.61
455,Sao Gabriel,BR,2022-05-05 18:57:33,-30.3364,-54.32,67.93,66,73,2.77
456,Longkou,CN,2022-05-05 18:57:33,37.6508,120.3286,59.72,71,88,18.88
457,Necochea,AR,2022-05-05 18:57:34,-38.5473,-58.7368,67.53,51,100,11.27
458,Bull Savanna,JM,2022-05-05 18:57:34,17.8868,-77.5902,83.7,58,11,16.82
459,Vestmanna,FO,2022-05-05 18:57:35,62.1564,-7.1664,45.52,100,100,13.8
460,Muyezerskiy,RU,2022-05-05 18:57:35,63.9333,31.65,35.65,93,100,7.9
461,Yambio,SS,2022-05-05 18:57:35,4.5721,28.3955,76.19,64,100,3.87
462,Unity,CA,2022-05-05 18:54:41,52.4501,-109.1682,73.26,30,34,9.4
463,Nome,US,2022-05-05 18:57:36,64.5011,-165.4064,36.16,75,40,0.09
464,Tiznit,MA,2022-05-05 18:57:37,29.5833,-9.5,69.44,42,100,5.03
465,Norwich,GB,2022-05-05 18:57:37,52.6278,1.2983,59.32,75,0,8.05
466,Mitzic,GA,2022-05-05 18:57:37,0.7821,11.549,71.6,95,100,1.92
467,Middletown,US,2022-05-05 18:57:35,39.5151,-84.3983,62.98,76,100,8.05
468,Puerto Colombia,CO,2022-05-05 18:55:56,10.9878,-74.9547,93.29,77,100,10.09
469,Kudahuvadhoo,MV,2022-05-05 18:57:38,2.6708,72.8944,82.36,76,100,12.28
470,Abu Dhabi,AE,2022-05-05 18:56:33,24.4667,54.3667,84.31,70,0,2.3
471,Tamworth,GB,2022-05-05 18:56:09,52.634,-1.6959,64.72,54,87,2.57
472,Bertoua,CM,2022-05-05 18:57:39,4.5833,13.6833,70.47,95,100,7.07
473,Narsaq,GL,2022-05-05 18:57:39,60.9167,-46.05,34.75,68,100,2.26
474,Guamuchil,MX,2022-05-05 18:57:40,25.4667,-108.1,86.68,23,0,6.31
475,Raga,SS,2022-05-05 18:57:40,8.4596,25.678,81.91,54,100,4.41
476,Hualmay,PE,2022-05-05 18:57:41,-11.0964,-77.6139,70.63,73,19,9.69
477,Fortuna,US,2022-05-05 18:57:41,40.5982,-124.1573,53.1,95,100,21.85
478,Rorvik,NO,2022-05-05 18:57:42,64.8621,11.2373,42.91,81,75,13.8
479,Ucluelet,CA,2022-05-05 18:54:51,48.9329,-125.5528,48.51,96,100,1.99
480,Mashhad,IR,2022-05-05 18:57:43,36.297,59.6062,68.14,73,20,4.61
481,Beverley,GB,2022-05-05 18:57:44,53.8459,-0.4233,64.62,78,100,7.11
482,Vallenar,CL,2022-05-05 18:57:44,-28.5708,-70.7581,76.51,34,100,5.77
483,Challapata,BO,2022-05-05 18:57:45,-18.9,-66.7667,57.06,15,0,6.76
484,Surgut,RU,2022-05-05 18:57:45,61.25,73.4167,37.58,80,0,8.99
485,Tabalosos,PE,2022-05-05 18:57:45,-6.35,-76.6833,75.4,96,100,2.91
486,Gilleleje,DK,2022-05-05 18:57:46,56.122,12.3106,54.1,81,54,10.74
487,Lubao,PH,2022-05-05 18:57:46,14.9167,120.55,82.11,80,49,1.39
488,Yazykovo,RU,2022-05-05 18:57:47,55.2199,56.1353,34.43,95,100,24.94
489,Burayevo,RU,2022-05-05 18:57:47,55.8407,55.4083,34.5,95,100,19.04
490,At-Bashi,KG,2022-05-05 18:57:47,41.1702,75.8106,49.17,83,45,1.32
491,Hami,CN,2022-05-05 18:57:48,42.8,93.45,75.88,24,91,10.36
492,Chapais,CA,2022-05-05 18:57:48,49.7834,-74.8492,38.98,30,3,13.58
493,Amazar,RU,2022-05-05 18:57:49,53.858,120.875,30.36,78,100,4.47
494,Sterling,US,2022-05-05 18:56:39,39.0062,-77.4286,68.34,68,100,5.01
495,Anadyr,RU,2022-05-05 18:57:49,64.75,177.4833,27.1,74,20,8.95
496,Kumluca,TR,2022-05-05 18:57:50,36.3703,30.2869,63.3,53,0,8.21
497,Oranjemund,NA,2022-05-05 18:57:50,-28.55,16.4333,60.85,73,0,4.38
498,Dutlwe,BW,2022-05-05 18:57:50,-23.9833,23.9,66.18,34,9,3.56
499,Whitecourt,CA,2022-05-05 18:57:51,54.1502,-115.6855,58.24,54,100,8.05
500,Atherton,GB,2022-05-05 18:57:51,53.5237,-2.4935,60.94,70,69,1.99
501,Ulaanbaatar,MN,2022-05-05 18:57:52,47.9077,106.8832,17.73,67,0,2.24
502,Cururupu,BR,2022-05-05 18:58:53,-1.8283,-44.8683,84.07,69,74,5.88
503,Tecpan,GT,2022-05-05 18:58:54,14.7623,-90.9947,70.9,62,100,5.3
504,Japura,ID,2022-05-05 18:58:55,-0.3167,102.35,74.84,94,100,2.44
505,Nurota,UZ,2022-05-05 18:58:55,40.5614,65.6886,70.14,45,39,5.53
506,Maceio,BR,2022-05-05 18:58:56,-9.6658,-35.7353,85.44,65,40,9.22
507,Tateyama,JP,2022-05-05 18:58:57,34.9833,139.8667,59.09,82,100,9.33
508,Henties Bay,NA,2022-05-05 18:58:57,-22.116,14.2845,69.1,55,0,7.45
509,Marienburg,PL,2022-05-05 18:57:43,54.0359,19.0266,54.12,96,100,6.64
510,Batemans Bay,AU,2022-05-05 18:58:58,-35.7167,150.1833,44.4,80,0,6.17
511,Huntingdon,GB,2022-05-05 18:56:08,52.3305,-0.1865,62.87,79,100,3.06
512,Boyolangu,ID,2022-05-05 18:58:58,-8.1181,111.8935,75.74,93,48,0.87
513,Birao,CF,2022-05-05 18:58:59,10.2849,22.7882,88.41,39,6,4.83
514,Mahajanga,MG,2022-05-05 18:58:59,-15.7167,46.3167,77.02,83,20,4.61
515,Kahului,US,2022-05-05 18:59:00,20.8947,-156.47,75.97,88,100,10.0
516,Gao,ML,2022-05-05 18:59:00,16.6362,1.637,96.22,7,78,9.51
517,Sturgis,US,2022-05-05 18:54:54,41.7992,-85.4192,57.33,71,100,8.05
518,Castelldefels,ES,2022-05-05 18:59:01,41.2779,1.9703,65.53,73,20,5.75
519,Saint-Augustin,CA,2022-05-05 18:59:01,51.226,-58.6502,46.47,55,100,8.84
520,Merrill,US,2022-05-05 18:59:02,45.1805,-89.6835,65.8,36,0,3.44
521,Cockburn Town,TC,2022-05-05 18:59:02,21.4612,-71.1419,82.36,65,40,17.27
522,Risod,IN,2022-05-05 18:59:03,19.9667,76.7833,89.6,20,0,8.08
523,Bethalto,US,2022-05-05 18:59:03,38.9092,-90.0407,57.24,94,100,1.01
524,Charters Towers,AU,2022-05-05 18:59:04,-20.1,146.2667,70.7,78,1,5.01
525,Meulaboh,ID,2022-05-05 18:59:04,4.1363,96.1285,76.37,93,100,2.71
526,Guadalupe Y Calvo,MX,2022-05-05 18:59:05,26.1,-106.9667,74.8,9,0,10.85
527,Boone,US,2022-05-05 18:59:05,39.0334,-92.3335,61.05,80,100,10.07
528,Aklavik,CA,2022-05-05 18:59:06,68.2191,-135.0107,24.8,80,100,13.8
529,Klaeng,TH,2022-05-05 18:59:06,12.7797,101.6483,83.95,85,100,2.48
530,Pochutla,MX,2022-05-05 18:59:06,15.7432,-96.4661,90.82,37,39,9.84
531,Punta Alta,AR,2022-05-05 18:55:57,-38.8759,-62.0736,70.86,40,13,12.53
532,Kununurra,AU,2022-05-05 18:58:13,-15.7667,128.7333,78.78,29,75,9.22
533,Nogales,MX,2022-05-05 18:54:49,31.3086,-110.9422,82.72,10,0,8.61
534,Gweru,ZW,2022-05-05 18:59:07,-19.45,29.8167,55.51,75,30,5.75
535,Port Macquarie,AU,2022-05-05 18:59:08,-31.4333,152.9167,61.9,88,100,8.86
536,Worthington,US,2022-05-05 18:58:11,40.0931,-83.018,63.86,74,100,5.32
537,Ngaoundere,CM,2022-05-05 18:59:08,7.3167,13.5833,67.55,92,100,5.37
538,Plover,US,2022-05-05 18:56:03,44.4564,-89.544,62.22,39,0,5.99
539,Hoquiam,US,2022-05-05 18:59:09,46.9809,-123.8893,48.36,92,100,9.22
540,Baykit,RU,2022-05-05 18:59:09,61.67,96.37,30.76,98,100,2.19
541,Ponta Delgada,PT,2022-05-05 18:59:10,37.7333,-25.6667,65.12,77,20,13.8
542,Thanh Hoa,VN,2022-05-05 18:59:10,19.8,105.7667,69.96,94,0,2.06
543,Pahrump,US,2022-05-05 18:59:10,36.2083,-115.9839,86.45,11,13,10.0
544,Karlskoga,SE,2022-05-05 18:59:11,59.3267,14.5239,54.72,69,38,9.35
545,Orlik,RU,2022-05-05 18:59:11,52.5178,99.825,34.97,47,100,3.56
546,Key West,US,2022-05-05 18:59:12,24.5557,-81.7826,84.99,67,0,4.43
547,Verkhoyansk,RU,2022-05-05 18:59:12,67.5447,133.385,21.15,97,100,2.75
548,Filingue,NE,2022-05-05 18:59:12,14.3521,3.3168,98.51,16,78,6.11
549,Tara,RU,2022-05-05 18:59:13,56.8944,74.371,48.65,52,11,6.4
550,Seoul,KR,2022-05-05 18:59:18,37.5683,126.9778,55.0,88,0,2.3
551,Praia Da Vitoria,PT,2022-05-05 19:00:15,38.7333,-27.0667,65.75,87,100,18.75
552,Rabo De Peixe,PT,2022-05-05 19:00:16,37.8,-25.5833,63.91,77,20,13.8
553,Iqaluit,CA,2022-05-05 19:00:16,63.7506,-68.5145,20.7,62,6,15.99
554,Immokalee,US,2022-05-05 19:00:16,26.4187,-81.4173,93.2,42,75,0.0
555,Puerto Madryn,AR,2022-05-05 19:00:17,-42.7692,-65.0385,65.77,43,40,3.6
556,Kyaikto,MM,2022-05-05 19:00:17,17.3,97.0167,81.21,73,19,4.14
557,Bethanien,NA,2022-05-05 19:00:18,-26.502,17.1583,68.47,25,0,4.32
558,Bolshoy Lug,RU,2022-05-05 19:00:18,52.0779,104.0919,28.58,54,100,5.19
559,Kandrian,PG,2022-05-05 19:00:19,-6.2167,149.55,77.22,89,83,2.73
560,Sao Joao Da Barra,BR,2022-05-05 19:00:21,-21.6403,-41.0511,76.19,80,91,4.97
561,Eyrarbakki,IS,2022-05-05 19:00:22,63.863,-21.1481,40.21,58,77,25.3
